[{"latitude": 37.87059, "longitude": 112.548879, "name": "ctc-ty-1-1-c2ax1", "key": "ctc-ty-1-1-c2ax1"}, {"latitude": 29.4315861, "longitude": 106.912251, "name": "gwn-cq-1-1-c2ax1", "key": "gwn-cq-1-1-c2ax1"}, {"latitude": 40.842356, "longitude": 111.749995, "name": "ctc-gy-2-1-c2ax1", "key": "ctc-gy-2-1-c2ax1"}, {"latitude": 37.87059, "longitude": 112.548879, "name": "cmc-ty-1-2-c2ax1", "key": "cmc-ty-1-2-c2ax1"}, {"latitude": 30.274084, "longitude": 120.15507, "name": "utn-hz-1-3-c2ax1", "key": "utn-hz-1-3-c2ax1"}, {"latitude": 43.817071, "longitude": 125.323544, "name": "ctc-cc-1-1-c2ax1", "key": "ctc-cc-1-1-c2ax1"}, {"latitude": 31.2303904, "longitude": 121.4737021, "name": "utn-sh-1-1-c2at2", "key": "utn-sh-1-1-c2at2"}, {"latitude": 31.811226, "longitude": 119.974061, "name": "upgrade.prismcdn.internal", "key": "upgrade.prismcdn.internal"}, {"latitude": 30.335237, "longitude": 112.239631, "name": "cuc-ez-1-1-c2ax1", "key": "cuc-ez-1-1-c2ax1"}, {"latitude": 38.874434, "longitude": 115.464589, "name": "cmc-jz-1-1-c2ax1", "key": "cmc-jz-1-1-c2ax1"}, {"latitude": 39.3433574, "longitude": 117.3616476, "name": "cuc-tj-1-1-c2ax1", "key": "cuc-tj-1-1-c2ax1"}, {"latitude": 31.811226, "longitude": 119.974061, "name": "inode-1.prismcdn.internal", "key": "inode-1.prismcdn.internal"}, {"latitude": 31.811226, "longitude": 119.974061, "name": "ops.prismcdn.internal", "key": "ops.prismcdn.internal"}, {"latitude": 24.479833, "longitude": 118.089425, "name": "ctc-xm-1-2-c2ax1", "key": "ctc-xm-1-2-c2ax1"}, {"latitude": 30.572815, "longitude": 104.066801, "name": "cmc-cd-1-1-c2ax1", "key": "cmc-cd-1-1-c2ax1"}, {"latitude": 32.435435, "longitude": 105.843357, "name": "ctc-gw-1-2-c2ax1", "key": "ctc-gw-1-2-c2ax1"}, {"latitude": 23.12911, "longitude": 113.264385, "name": "ctc-fs-1-4-c2ax1", "key": "ctc-fs-1-4-c2ax1"}, {"latitude": 45.80377499999999, "longitude": 126.534967, "name": "cuc-hr-1-1-c2ax1", "key": "cuc-hr-1-1-c2ax1"}, {"latitude": 31.811226, "longitude": 119.974061, "name": "kafka-1.prismcdn.internal", "key": "kafka-1.prismcdn.internal"}, {"latitude": 42.90940800000001, "longitude": 129.4718681, "name": "cuc-yj-1-1-c2ax1", "key": "cuc-yj-1-1-c2ax1"}, {"latitude": 39.3433574, "longitude": 117.3616476, "name": "gwn-tj-1-1-c2ax1", "key": "gwn-tj-1-1-c2ax1"}, {"latitude": 29.4315861, "longitude": 106.912251, "name": "btn-cq-1-1-c2ax1", "key": "btn-cq-1-1-c2ax1"}, {"latitude": 37.87059, "longitude": 112.548879, "name": "cuc-ty-2-1-c2ax1", "key": "cuc-ty-2-1-c2ax1"}, {"latitude": 28.228209, "longitude": 112.938814, "name": "ctc-cs-1-1-c2ax1", "key": "ctc-cs-1-1-c2ax1"}, {"latitude": 31.811226, "longitude": 119.974061, "name": "aboss.prismcdn.internal", "key": "aboss.prismcdn.internal"}, {"latitude": 41.805699, "longitude": 123.431472, "name": "cuc-sy-1-2-c2ax1", "key": "cuc-sy-1-2-c2ax1"}, {"latitude": 31.811226, "longitude": 119.974061, "name": "anode-2.prismcdn.internal", "key": "anode-2.prismcdn.internal"}, {"latitude": 31.811226, "longitude": 119.974061, "name": "redis-3.prismcdn.internal", "key": "redis-3.prismcdn.internal"}, {"latitude": 26.074478, "longitude": 119.296482, "name": "cuc-fz-1-2-c2ax1", "key": "cuc-fz-1-2-c2ax1"}, {"latitude": 28.682892, "longitude": 115.858197, "name": "ctc-nc-1-1-c2ax1", "key": "ctc-nc-1-1-c2ax1"}, {"latitude": 30.89440999999999, "longitude": 120.086809, "name": "utn-ho-1-3-c2an1", "key": "utn-ho-1-3-c2an1"}, {"latitude": 36.200252, "longitude": 117.087614, "name": "cuc-ta-1-2-c2ax1", "key": "cuc-ta-1-2-c2ax1"}, {"latitude": 23.021478, "longitude": 113.121435, "name": "cuc-gz-1-2-c2ax1", "key": "cuc-gz-1-2-c2ax1"}, {"latitude": 31.811226, "longitude": 119.974061, "name": "conf-1.prismcdn.internal", "key": "conf-1.prismcdn.internal"}, {"latitude": 31.811226, "longitude": 119.974061, "name": "redis-2.prismcdn.internal", "key": "redis-2.prismcdn.internal"}, {"latitude": 32.455536, "longitude": 119.922933, "name": "ctc-tz-1-2-c2ax1", "key": "ctc-tz-1-2-c2ax1"}, {"latitude": 38.925875, "longitude": 100.449818, "name": "ctc-lz-1-1-c2ax1", "key": "ctc-lz-1-1-c2ax1"}, {"latitude": 40.65797800000001, "longitude": 109.840313, "name": "ctc-hh-1-1-c2ax1", "key": "ctc-hh-1-1-c2ax1"}, {"latitude": 29.868336, "longitude": 121.54399, "name": "utn-qu-1-2-c2an1", "key": "utn-qu-1-2-c2an1"}, {"latitude": 31.811226, "longitude": 119.974061, "name": "inode-2.prismcdn.internal", "key": "inode-2.prismcdn.internal"}, {"latitude": 31.811226, "longitude": 119.974061, "name": "nginx-1.prismcdn.internal", "key": "nginx-1.prismcdn.internal"}, {"latitude": 31.2303904, "longitude": 121.4737021, "name": "cmc-bj-1-1-c2ax1", "key": "cmc-bj-1-1-c2ax1"}, {"latitude": 36.6512, "longitude": 117.120095, "name": "cuc-jn-1-1-c2ax1", "key": "cuc-jn-1-1-c2ax1"}, {"latitude": 31.811226, "longitude": 119.974061, "name": "open-falcon.prismcdn.internal", "key": "open-falcon.prismcdn.internal"}, {"latitude": 31.811226, "longitude": 119.974061, "name": "anode-4.prismcdn.internal", "key": "anode-4.prismcdn.internal"}, {"latitude": 34.035771, "longitude": 113.852454, "name": "cuc-xh-1-1-c2ax1", "key": "cuc-xh-1-1-c2ax1"}, {"latitude": 31.811226, "longitude": 119.974061, "name": "erep-1.prismcdn.internal", "key": "erep-1.prismcdn.internal"}, {"latitude": 29.4315861, "longitude": 106.912251, "name": "ctc-cq-1-2-c2ax1", "key": "ctc-cq-1-2-c2ax1"}, {"latitude": 31.811226, "longitude": 119.974061, "name": "statistics.prismcdn.internal", "key": "statistics.prismcdn.internal"}, {"latitude": 31.811226, "longitude": 119.974061, "name": "solar-1.prismcdn.internal", "key": "solar-1.prismcdn.internal"}, {"latitude": 23.12911, "longitude": 113.264385, "name": "cmc-gz-1-1-c2ax1", "key": "cmc-gz-1-1-c2ax1"}, {"latitude": 31.811226, "longitude": 119.974061, "name": "pingx.prismcdn.internal", "key": "pingx.prismcdn.internal"}, {"latitude": 31.811226, "longitude": 119.974061, "name": "cnode-1.prismcdn.internal", "key": "cnode-1.prismcdn.internal"}, {"latitude": 34.620202, "longitude": 112.453926, "name": "ctc-ly-1-1-c2ax1", "key": "ctc-ly-1-1-c2ax1"}, {"latitude": 31.811226, "longitude": 119.974061, "name": "anode-1.prismcdn.internal", "key": "anode-1.prismcdn.internal"}, {"latitude": 30.274084, "longitude": 120.15507, "name": "utn-hz-1-3-c2at1", "key": "utn-hz-1-3-c2at1"}, {"latitude": 20.044412, "longitude": 110.198286, "name": "ctc-ih-1-1-c2ax1", "key": "ctc-ih-1-1-c2ax1"}, {"latitude": 31.811226, "longitude": 119.974061, "name": "anode-6.prismcdn.internal", "key": "anode-6.prismcdn.internal"}, {"latitude": 49.211742, "longitude": 119.765607, "name": "cuc-hh-2-1-c2ax1", "key": "cuc-hh-2-1-c2ax1"}, {"latitude": 23.020673, "longitude": 113.751799, "name": "ctc-dg-1-1-c2ax1", "key": "ctc-dg-1-1-c2ax1"}, {"latitude": 31.811226, "longitude": 119.974061, "name": "mysql-1.prismcdn.internal", "key": "mysql-1.prismcdn.internal"}, {"latitude": 31.811226, "longitude": 119.974061, "name": "salt.prismcdn.internal", "key": "salt.prismcdn.internal"}, {"latitude": 22.817002, "longitude": 108.366543, "name": "ctc-nn-1-1-c2ax1", "key": "ctc-nn-1-1-c2ax1"}, {"latitude": 37.73892000000001, "longitude": 115.670177, "name": "cuc-hs-1-1-c2ax1", "key": "cuc-hs-1-1-c2ax1"}, {"latitude": 31.811226, "longitude": 119.974061, "name": "brep-1.prismcdn.internal", "key": "brep-1.prismcdn.internal"}, {"latitude": 36.813546, "longitude": 118.055019, "name": "cuc-zb-1-1-c2ax1", "key": "cuc-zb-1-1-c2ax1"}, {"latitude": 38.042805, "longitude": 114.514893, "name": "utn-jz-1-1-c2ax1", "key": "utn-jz-1-1-c2ax1"}, {"latitude": 32.087127, "longitude": 112.211982, "name": "ctc-xf-1-1-c2ax1", "key": "ctc-xf-1-1-c2ax1"}, {"latitude": 31.811226, "longitude": 119.974061, "name": "redis-1.prismcdn.internal", "key": "redis-1.prismcdn.internal"}, {"latitude": 21.270702, "longitude": 110.359368, "name": "cuc-zj-1-1-c2ax1", "key": "cuc-zj-1-1-c2ax1"}, {"latitude": 36.097577, "longitude": 114.392392, "name": "cuc-ay-1-1-c2ax1", "key": "cuc-ay-1-1-c2ax1"}, {"latitude": 31.811226, "longitude": 119.974061, "name": "anode-5.prismcdn.internal", "key": "anode-5.prismcdn.internal"}, {"latitude": 31.820591, "longitude": 117.227219, "name": "ctc-ch-1-1-c2ax1", "key": "ctc-ch-1-1-c2ax1"}, {"latitude": 30.274084, "longitude": 120.15507, "name": "was-hz-1-1-c2ax1", "key": "was-hz-1-1-c2ax1"}, {"latitude": 31.811226, "longitude": 119.974061, "name": "snode-1.prismcdn.internal", "key": "snode-1.prismcdn.internal"}, {"latitude": 31.811226, "longitude": 119.974061, "name": "trep-1.prismcdn.internal", "key": "trep-1.prismcdn.internal"}, {"latitude": 27.6252995, "longitude": 111.8568586, "name": "cmc-cs-1-1-c2ax1", "key": "cmc-cs-1-1-c2ax1"}, {"latitude": 31.811226, "longitude": 119.974061, "name": "mongo-1.prismcdn.internal", "key": "mongo-1.prismcdn.internal"}, {"latitude": 36.6512, "longitude": 117.120095, "name": "ctc-qd-1-1-c2ax1", "key": "ctc-qd-1-1-c2ax1"}, {"latitude": 43.817071, "longitude": 125.323544, "name": "crc-cc-1-1-c2ax1", "key": "crc-cc-1-1-c2ax1"}, {"latitude": 39.3433574, "longitude": 117.3616476, "name": "ctc-tj-2-1-c2ax1", "key": "ctc-tj-2-1-c2ax1"}, {"latitude": 34.363184, "longitude": 107.237743, "name": "ctc-bv-1-1-c2ax1", "key": "ctc-bv-1-1-c2ax1"}, {"latitude": 35.8939566, "longitude": 117.9249002, "name": "cmc-qd-1-1-c2ax1", "key": "cmc-qd-1-1-c2ax1"}, {"latitude": 26.4836842, "longitude": 117.9249002, "name": "cmc-fz-1-1-c2ax1", "key": "cmc-fz-1-1-c2ax1"}, {"latitude": 30.592849, "longitude": 114.305539, "name": "cnt-wh-1-1-c2ax1", "key": "cnt-wh-1-1-c2ax1"}, {"latitude": 39.90419989999999, "longitude": 116.4073963, "name": "ctc-bj-1-1-c2ax1", "key": "ctc-bj-1-1-c2ax1"}, {"latitude": 29.4315861, "longitude": 106.912251, "name": "cuc-cq-1-2-c2ax1", "key": "cuc-cq-1-2-c2ax1"}, {"latitude": 24.880095, "longitude": 102.832891, "name": "ctc-km-1-1-c2ax1", "key": "ctc-km-1-1-c2ax1"}, {"latitude": 37.070834, "longitude": 114.504677, "name": "cuc-ed-1-1-c2ax1", "key": "cuc-ed-1-1-c2ax1"}, {"latitude": 31.811226, "longitude": 119.974061, "name": "anode-3.prismcdn.internal", "key": "anode-3.prismcdn.internal"}]